{

  "map": [{"id": 1, "lat": 50.4357, "lng": 30.5164, "title": "вул. В. Васильківська, 45", "center": true},
    {"id": 2, "lat": 50.4898, "lng": 30.4927, "title": "просп. Степана Бандери, 21"},
    {"id": 3, "lat": 50.4316, "lng": 30.5131, "title": "вул. Горького , 50"},
    {"id": 4, "lat": 50.5145, "lng": 30.4986, "title": "просп. Оболонський, 21Б"},
    {"id": 5, "lat": 50.381827, "lng": 30.44093, "title": "вул. Велика Кільцева, 110"},
    {"id": 6, "lat": 50.4605, "lng": 30.3469, "title": "вул. Чорнобильська, 16/80"},
    {"id": 7, "lat": 50.4083, "lng": 30.6552, "title": "вул. Вербицького, 18"},
    {"id": 8, "lat": 50.399, "lng": 30.5107, "title": "просп. Голосіївський, 68а"},
    {"id": 9, "lat": 50.4634, "lng": 30.5992, "title": "просп. Визволителів, 17"},
    {"id": 10, "lat": 50.454762, "lng": 30.636051, "title": "вул. Гната Хоткевича, 1-В"},
    {"id": 11, "lat": 50.4304, "lng": 30.4552, "title": "бульв. Чоколівський, 19"},
    {"id": 12, "lat": 50.4312, "lng": 30.3836, "title": "вул. Гната Юри, 20"},
    {"id": 13, "lat": 50.3976, "lng": 30.6382, "title": "вул. Олександра Мішуги, 4"},
    {"id": 14, "lat": 50.451, "lng": 30.4416, "title": "вул. Гетьмана, 6 (літери \"Б,Б\")"},
    {"id": 15, "lat": 50.4567, "lng": 30.3832, "title": "просп. Перемоги, 87"},
    {"id": 16, "lat": 50.49375, "lng": 30.56128, "title": "вул. Генерала Ватутіна, 2"},
    {"id": 17, "lat": 50.5198, "lng": 30.4656, "title": "вул. Калнишевського, 2"}
  ]

}
